,lat,lng,name
14,48.871207561562,2.3163771629334,Hôtel de Beauvau - Ministère de l'Intérieur
24,48.85217939103,2.3088366233648996,Ministère des Affaires sociales et de la Santé
31,48.849865603514004,2.363062280135,Centre Administratif Morland
42,48.867800804085,2.2921996314463,CNC - Centre national de la Cinématographie
49,48.840415067329,2.3180538629706002,Direction Générale à l'Emploi et à la Formation Professionnelle
62,48.86740406101,2.3393120028223,CNIL - Commission nationale de l'informatique et des libertés
77,48.848620279028,2.3681545257568,SIAAP
84,48.83951307178,2.3172054292336,Ministere du Travail (dicom)
93,48.826538676831,2.3662313267390003,Inserm
100,48.879672006165,2.3084709435772,Consulado Geral de Portugal
113,48.842889890429,2.3478371285967996,"Caisse D'Allocation Familiale - ""Pot De Fer """
114,48.819000736349004,2.3446978992716003,Maison du Sport
116,48.840889181854,2.3177618632542996,ARCEP
119,48.893958990304,2.3623539204137005,Centre Des Impots
121,48.83491773608,2.2714481968481,Direction Générale de l'Aviation Civile
134,48.866197329924,2.3710722567034996,CPAM Paris
139,48.880527206201,2.3660353285975,Pole Emploi
144,48.854839,2.3178650000000003,Hotel de Clermont
145,48.843734344697,2.2764420739025,Direction de la protection judiciaire de la jeunesse
146,48.861441,2.345329,CNES
152,48.857156175033,2.3247297499762003,"Ministère de l'Écologie, du Développement durable, des Transports et du Logement"
160,48.83240740668101,2.3799345605801,"Direction de la Jeunesse, de l'Éducation Populaire et de la Vie Associative"
168,48.873184,2.316932,Datar
192,48.851045674172,2.4121159481458996,Centre des Finances Publiques
194,48.854811099659,2.3919123770756,Pole Emploi
216,48.855729113374004,2.3229213178025003,Résidence de l'ambassadeur de Russie
222,48.840542852103006,2.3782396316528,"Ministère du Budget, des Comptes Publics et de la Réforme de l'État"
224,48.882853600034,2.3280975707565,Agessa
225,48.867580886353,2.3291774917697,Ministère de la Justice
226,48.859803021836,2.3187728991612,Ministère de la Ville Hotel de Broglie
231,48.893985,2.3325099999999996,DASES/SDIS
239,48.860823441764005,2.3242211979516,Grande Chancellerie de l'Ordre de la Legion d'Honneur
247,48.844013000000004,2.3725970000000003,Sipperec
255,48.861314971913,2.2704368122012997,OECD - Chateau De La Muette
263,48.861218045136994,2.2706154039802002,Ocde Rue Andre Pascal Paris
272,48.833808035896,2.3975273158808,Centre Des Finances Publiques
278,48.860162131997,2.303407422269,Organisation Internationale de la Francophonie
291,48.875727000000005,2.283823,Hotel Des Impots Du 16eme
292,48.860900033694,2.2707174679845,OECD - Marshall Building
296,48.844867448698,2.2610806102713,Ambassade du Bangladesh
299,48.838075,2.393783,CPAM Daumesnil
301,48.837455352938,2.3923836656992004,Agence Juive
304,48.845309941119005,2.396552532517,Office National Des Forets (ONF)
309,48.841467217417005,2.3768749137755,Csmf
317,48.883616344269,2.3871660579999,Pole emploi darius milhaud
320,48.874746,2.354537,Pole Emploi
330,48.823612,2.324607,Assurance Maladie
334,48.869504209294995,2.4066124351557003,Centre D'action Social Du 20e
340,48.850542593953,2.3240431760997997,Conseil Régional Île de France - Unité Communication
343,48.849035988599994,2.2695969234792,Hôtel des Impôts
350,48.866867836726996,2.3564811284072005,Cnam
354,48.829835235478,2.3236691023928,Tresor Public
360,48.834981797499,2.2821754477609,Ministère de la Défense
362,48.893016525647,2.3852333209823,Centre De Finances Publiques
382,48.859586566317994,2.3220577600314,Ministère Des Armées
386,48.867328808292996,2.3765820830065,Mdee 20
388,48.83587734335,2.3023356946455,Centre des Finances Publiques
389,48.850509193395006,2.3080638822539,"Etalab, Data.gouv.fr"
391,48.857495740507005,2.2646284475485,OCDE Coreé
392,48.827929704647,2.3447783621787996,Centre d'assurance maladie de la Butte aux Cailles
396,48.832561244827005,2.3873873200822997,Service des Achats de l'Etat
403,48.893977797742004,2.3590708899894,Caisse d'Allocations Familiales
416,48.86891455,2.2764717999999995,Représentation Commerciale De Russie En France
450,48.867512892377995,2.3408150618272,Direction Generale Des Finances Publiques
458,48.839710319381,2.3712509455832995,Service de Navigation Seine
459,48.839714512858,2.3764750097973,DREE (Comatta)
470,48.831836560283,2.3875107733487,Ministère de l'Economie et des Finances - Direction Des Fraudes
471,48.868933995525,2.2763932014428,Ambassade d'Irak - Centre Culturel
499,48.875754319997995,2.3353807026115,ACP
500,48.848925201821004,2.3356730883532,Le Petit Luxembourg - Hôtel de la présidence du Sénat
508,48.855068200387,2.3178035434432998,Ministère des Relations avec le Parlement
516,48.872877594462004,2.3519833864068,Pole Emploi Spectacle
519,48.856463537667,2.3102188971644,Secrétariat Général De La Défense Et De La Sécurité Nationale
527,48.877163258655,2.3421478271483998,Permanence UMP
541,48.832372213876,2.3874829625192002,Conseil National du Numérique
544,48.862738360573,2.267972626386,Ambassade De Madagascar
546,48.84047223948,2.392315864563,La Maison des Associations du 12e
558,48.872020047180996,2.4044155976792,Reservoir Telegraphe
582,48.833191154538,2.3342853052918,Invest In France
589,48.858955508953,2.3565296065037997,Maison Des Acteurs Du Paris Durable
616,48.872316,2.406478,Assurance Maladie
619,48.846664000000004,2.259661,Pole Emploi Cadres Chanez
621,48.838252877668,2.317839785898,Ministère de la santé
626,48.839819657155,2.2736504404206004,CEA - Energie Atomique & Energies Alternatives
639,48.837892658918,2.2807215347222005,Pôle Emploi
668,48.847201250356996,2.2796905708562,"Ministère du Travail, de l'Emploi et de la Santé"
685,48.840699737335996,2.3778287413698,Ministère délégué aux PME à l'innovation et à l'économie numérique
692,48.870558,2.356782,Camionette blanche de la DCRI
711,48.859706315707996,2.3186333434549997,Ministere des droits de la femme
714,48.825076311347,2.3660945892333998,Espace Jeunes Olympiades
721,48.891312028156996,2.2997141733232,Centre des impôts du 17ème arrondissement
724,48.881291,2.284524,Consulat de Russie
751,48.870919146912,2.2990524101015,Tourisme Flandre & Bruxelles
780,48.833836,2.39794,Trésor Public
785,48.89270913024,2.3331037018133,Centre Des Impôts Grandes Carrières
820,48.849333965686,2.3155369365832,CNAPS
823,48.858401687434,2.2713216907757,U.S. Embassy Annex
828,48.861043905250995,2.3219463533612,"Ministere de la Reforme de l'Etat, de la Decentralisation et de la Fonction Publique"
839,48.845600272883,2.3711604134469,ANR
865,48.864383761898004,2.2922679023772,Embajada de Mexico
867,48.859858,2.269818,Embassy of Sudan
875,48.885394960294,2.3676663805550002,Pole Emploi
892,48.858943610901,2.2750152285184,L'ambassade d'Indonesie
917,48.876859,2.330054,Tresor Public
925,48.830663,2.3431800000000003,Pole Emploi Daviel
931,48.887143066575,2.378095767651,Pôle Emploi Spectacle
934,48.860600827155,2.3186972801228,Salle des quatre colonnes - Assemblée nationale
940,48.840332688071,2.3770830125165,Hotel Des Ministres De Bercy
951,48.849479675293,2.4151885509491,SCP MARTIN FITOUSSI
962,48.8936326,2.3627416,Centre des Finances Boucry
965,48.869028968549,2.2772331680902003,Ambassade de Malaisie
978,48.837396000000005,2.31758,Consulado do Brasil em Paris
981,48.833117,2.377521,Bnf Tour Des Lois
986,48.868020555002005,2.2901922651527,Ambassade Argentine
988,48.883993090474995,2.3871874809265,Pole Emploi
991,48.843078736011,2.3900296460823998,Cnes Daumesnil
992,48.860984032486,2.3704315071815,Conseil Général du Val-de-Marne
993,48.83277130127,2.3746893405914,Assurance Maladie - Agence Buttes Chaumont
1002,48.85803,2.2639669999999996,주 OECD 대한민국 대표부
1003,48.855267,2.322548,Hôtel d'Estrées - Résidence de l'ambassadeur de Russie
1007,48.871836042904995,2.3429728802328,Gcs D-Sisif
1016,48.840780419806,2.302532977956,Centre Des Impots Rue Du General Beuret
1020,48.859931,2.315562,Ministère Des Familles
1032,48.856410033832,2.2738475465247996,4 rue Marietta Martin
1039,48.868301,2.289089,Académie Polonaise des Sciences
1043,48.838325568239,2.3964786529541002,Antenne Jeunes Claude Decaen
1045,48.820127484863995,2.3260250860227,Agence de Sûreté Nucléaire
1058,48.864162,2.271188,Ambassade du Cambodge
1059,48.840064609559995,2.3841314587275,Préfecture de Police – Antenne du 12e arrondissement
1060,48.858857095142,2.4057985323887,Mission Locale du 20e Arrondissement
1074,48.871295835817,2.3020242543839,TC Paris Büyükelçiliği Kültür Ve Tanıtma Müşavirliği
1075,48.819411114297,2.3596787452698003,DASES 13
1098,48.873665773782996,2.3015927935289,Hotel Potocki
1102,48.870622999999995,2.280651,Ambassade De La République Du Nicaragua
1104,48.869032000000004,2.276186,Ambassade De La République De Guinée
1124,48.850053434122,2.3721703956802997,Le Resah
1145,48.834755537972,2.4100026325894,Direction de la Voirie et des Déplacements- Division des Opérations Non Sectorisées
1147,48.837148,2.30136,Pôle Emploi
1150,48.839897364009,2.3022037340812003,Centre Des Finances Publiques
1170,48.831361,2.328329,CASVP 14eme
1174,48.830317138042,2.3775282266948996,URSAAF de Paris Sud
1196,48.872315500000006,2.3387466,Bpifrance
24334,48.870333993871,2.3162339595141,Palais de l'Élysée
24340,48.857282295048996,2.3369336128235,Institut de France
24374,48.848141762901,2.304541769823,European Space Agency HQ
24398,48.863110862222,2.3364942333119,Conseil Constitutionnel
24413,48.863985310600995,2.2927550394150003,"Conseil économique, social et environnemental"
24447,48.858204,2.318611,Commissariat général à la stratégie et à la prospective
24480,48.881966436708005,2.3257543147216,INPI
24482,48.855789578465995,2.3181917116336,"Ministère de l'Alimentation, de l'Agriculture et de la Pêche"
24491,48.847222356059,2.3494809865952004,Ministère de l'Enseignement supérieur et de la Recherche
24515,48.85692229000399,2.3213338851929,Ministère de l'Éducation Nationale
24519,48.862329152011995,2.3160874843597,Ministère des Affaires Étrangères et Européennes
24536,48.898347281018,2.3474985701124,Préfecture de Police
24584,48.852150213828004,2.3180294036865,Conseil Régional IDF Barbet
24603,48.844867395181,2.281051114241,Ministère des Affaires Étrangères et Européennes
24604,48.866366271197,2.2770667076111,Amassade du Nigeria a Paris
24609,48.835042360654,2.3686505908267,DGCCRF
24626,48.851666627472,2.3167848587036,Hémicycle du Conseil régional IDF
24634,48.872529706161004,2.4048343142344,Direction Générale de la Sécurité Extérieure
24649,48.837884762954,2.319378760866,Hadopi
24652,48.871840999999996,2.310106,Consulat-Général du Brésil à Paris
24655,48.86400122449,2.2929604801512005,Palais d'Iéna
24657,48.873610719256,2.3604646126672004,Pole Emploi
24658,48.862644067221005,2.3369597825048998,Conseil d'État
24661,48.852912673863,2.293223956426,DILA (Direction de l'Information Légale et Administrative)
24679,48.854726208782,2.3728026535154,OFII
24713,48.854772616506004,2.3219938923479,Maison De La Recherche
24718,48.849665165657996,2.3061740398407005,UNESCO
24728,48.851636119076005,2.3642263277131,Garde Républicaine
24739,48.858990598198005,2.3208277364157004,Ministère de la Défense SGA
24742,48.825545217479,2.2998509582252997,Insee
24753,48.84844116510801,2.3161100741147003,Ministère des Affaires Étrangères
24768,48.856357570993005,2.380428314209,Centre Des Finances Publiques
24800,48.86063032776,2.3183375029737,Hôtel de Lassay
24806,48.841588,2.376947,Pôle Emploi Bercy
24808,48.872718,2.352177,Assedic du Spectacle
24815,48.828271185041,2.3444172542815,Pôle Emploi
24816,48.879171370507,2.3292281450747003,The Ministry of Lost Souls
24840,48.863228802167995,2.3996141901601002,Pôle Emploi
24856,48.860505592951,2.3183909348852003,Salle Colbert
24858,48.894435202633,2.3620774977954997,Pôle Emploi
24859,48.839624,2.371348,Voies Navigables De france
24870,48.894874597837,2.3324506877524,Pole Emploi Guy Moquet
24887,48.876222682802,2.3933596803977,Prefecture De Police Antenne Du 19e
24915,48.892221410267,2.3154845731753,Pôle Emploi Cardinet
24936,48.819855276165,2.4540247768164,Centre de rétention administratif de Vincennes (CRA)
24947,48.858768642611,2.2730179807692004,Consolato Generale d'Italia a Parigi
24948,48.88935586844,2.306785920266,RSI Ile de France Centre
24950,48.871077461118,2.4047258243087004,Reservoirs De Menilmontant
24951,48.896622768471005,2.3810454032202997,U.R.S.S.A.F
24954,48.854744131664,2.320939718421,Hôtel de Montalivet
24955,48.856695739383,2.4037905367856003,Bureau Passion
24960,48.856899943517,2.3486720983691,"Préfecture de Police - Guichet des cartes d'identité, passeports et associations"
24962,48.874036,2.284233,Consulat du Liban
24964,48.862428278691,2.3199683826696,Délégation du Parlement européen
24974,48.897661017705005,2.3526427092113,Federation Leo Lagrange
24987,48.839561327723,2.3762226104736,Cabinet de Fleur Pellerin
24998,48.840206485721,2.3770610945801,Ministère Du Redressement Productif
25004,48.84251996512,2.3760509490967,Sgmap
25014,48.872920897126,2.2803698120497002,Délégation du Québec à Paris
